{
    "AUT": {
        "name": "Австрия",
        "color": "turquoise",
        "cities": [
            {
                "name": "Вена",
                "lat": 48.216667,
                "lon": 16.373333,
                "visits": [
                    {
                        "date": "2014-06-19",
                        "link": "/post/eurotrip-2014-vienna/"
                    },
                    {
                        "date": "2012-07-12"
                    }
                ]
            },
            {
                "name": "Грац",
                "lat": 47.066667,
                "lon": 15.433333,
                "visits": [
                    {
                        "date": "2014-06-20",
                        "link": "/post/eurotrip-2014-graz/"
                    }
                ]
            },
            {
                "name": "Зальцбург",
                "lat": 47.7934,
                "lon": 13.0332,
                "visits": [
                    {
                        "date": "2019-10-20"
                    }
                ]
            },
            {
                "name": "Инсбрук",
                "lat": 47.26,
                "lon": 11.3832,
                "visits": [
                    {
                        "date": "2019-03-29/2019-03-31"
                    }
                ]
            },
            {
                "name": "Линц",
                "lat": 48.2936,
                "lon": 14.2833,
                "visits": [
                    {
                        "date": "2020-02-28/2020-03-01"
                    }
                ]
            },
            {
                "name": "Майрхофен",
                "lat": 47.1594,
                "lon": 11.8666,
                "visits": [
                    {
                        "date": "2020-07-25/2020-08-02"
                    }
                ]
            },
            {
                "name": "Чаггунс",
                "lat": 47.076667,
                "lon": 9.900833,
                "visits": [
                    {
                        "date": "2018-07-28/2018-08-04"
                    }
                ]
            }
        ]
    },

    "BEL": {
        "name": "Бельгия",
        "color": "turquoise",
        "cities": [
            {
                "name": "Антверпен",
                "lat": 51.216667,
                "lon": 4.4,
                "visits": [
                    {
                        "date": "2013-08-22",
                        "link": "/post/eurotrip-antwerpen/"
                    }
                ]
            },
            {
                "name": "Брюгге",
                "lat": 51.209444,
                "lon": 3.22,
                "visits": [
                    {
                        "date": "2013-08-21",
                        "link": "/post/eurotrip-brugge/"
                    }
                ]
            },
            {
                "name": "Брюссель",
                "lat": 50.846667,
                "lon": 4.3525,
                "visits": [
                    {
                        "date": "2013-08-19/2013-08-20",
                        "link": "/post/eurotrip-brussels/"
                    }
                ]
            },
            {
                "name": "Гент",
                "lat": 51.05,
                "lon": 3.716667,
                "visits": [
                    {
                        "date": "2013-08-21",
                        "link": "/post/eurotrip-ghent/"
                    }
                ]
            }
        ]

    },

    "BLR": {
        "name": "Беларусь",
        "color": "green",
        "cities": [
            {
                "name": "Берёза",
                "lat": 52.55,
                "lon": 24.966667,
                "visits": [
                    {
                        "date": "2013-07-27"
                    }
                ]
            },
            {
                "name": "Борисов",
                "lat": 54.233333,
                "lon": 28.5,
                "visits": [
                    {
                        "date": "2010-09-26"
                    }
                ]
            },
            {
                "name": "Браслав",
                "lat": 55.643333,
                "lon": 27.061389,
                "visits": [
                    {
                        "date": "2014-09-13",
                        "link": "/post/braslav/"
                    }
                ]
            },
            {
                "name": "Брест",
                "lat": 52.133333,
                "lon": 23.666667,
                "visits": [
                    {
                        "date": "2014-08-16"
                    }
                ]
            },
            {
                "name": "Витебск",
                "lat": 55.183333,
                "lon": 30.166667,
                "visits": [
                    {
                        "date": "2015-07-03/2015-07-05",
                        "link": "/post/vitebsk-1/"
                    }
                ]
            },
            {
                "name": "Глубокое",
                "lat": 55.133333,
                "lon": 27.683333,
                "visits": [
                    {
                        "date": "2015-05-01",
                        "link": "/post/belarus-2015-1/"
                    }
                ]
            },
            {
                "name": "Голубые озёра",
                "lat": 54.975833,
                "lon": 26.416667,
                "visits": [
                    {
                        "date": "2014-07-18/2014-07-20",
                        "link": "/post/land-of-lakes/"
                    }
                ]
            },
            {
                "name": "Гомель",
                "lat": 52.441667,
                "lon": 30.983333,
                "visits": [
                    {
                        "date": "2013-12-31/2014-01-02"
                    }
                ]
            },
            {
                "name": "Гродно",
                "lat": 53.666667,
                "lon": 23.816667,
                "visits": [
                    {
                        "date": "2012-03-10/2012-03-11"
                    }
                ]
            },
            {
                "name": "Докшицы",
                "lat": 54.883333,
                "lon": 27.766667,
                "visits": [
                    {
                        "date": "2015-05-01",
                        "link": "/post/belarus-2015-1/"
                    }
                ]
            },
            {
                "name": "Заславль",
                "lat": 54,
                "lon": 27.283333,
                "visits": [
                    {
                        "date": "2010-08-29"
                    }
                ]
            },
            {
                "name": "Коссово",
                "lat": 52.75,
                "lon": 25.15,
                "visits": [
                    {
                        "date": "2015-05-09",
                        "link": "/post/belarus-2015-2/"
                    }
                ]
            },
            {
                "name": "Минск",
                "lat": 53.9,
                "lon": 27.566667
            },
            {
                "name": "Мир",
                "lat": 53.45,
                "lon": 26.466667,
                "visits": [
                    {
                        "date": "2017-08-19"
                    },
                    {
                        "date": "2013-05-10"
                    }
                ]
            },
            {
                "name": "Могилёв",
                "lat": 53.916667,
                "lon": 30.35,
                "visits": [
                    {
                        "date": "2012-08-11/2012-08-12"
                    }
                ]
            },
            {
                "name": "Молодечно",
                "lat": 54.313611,
                "lon": 26.851667
            },
            {
                "name": "Мосар",
                "lat": 55.225225,
                "lon": 27.464953,
                "visits": [
                    {
                        "date": "2015-05-01",
                        "link": "/post/belarus-2015-1/"
                    }
                ]
            },
            {
                "name": "Нарочь",
                "lat": 54.906771,
                "lon": 26.706599,
                "visits": [
                    {
                        "date": "2014-07-20",
                        "link": "/post/land-of-lakes/"
                    },
                    {
                        "date": "2011-08-13/2011-08-14"
                    }
                ]
            },
            {
                "name": "Несвиж",
                "lat": 53.216667,
                "lon": 26.666667,
                "visits": [
                    {
                        "date": "2013-05-10"
                    }
                ]
            },
            {
                "name": "Орша",
                "lat": 54.5,
                "lon": 30.4,
                "visits": [
                    {
                        "date": "2012-09-09"
                    }
                ]
            },
            {
                "name": "Парафьяново",
                "lat": 54.877,
                "lon": 27.6065,
                "visits": [
                    {
                        "date": "2015-05-01",
                        "link": "/post/belarus-2015-1/"
                    }
                ]
            },
            {
                "name": "Париж",
                "lat": 55.15,
                "lon": 27.366667,
                "visits": [
                    {
                        "date": "2015-05-01",
                        "link": "/post/belarus-2015-1/"
                    }
                ]
            },
            {
                "name": "Полоцк",
                "lat": 55.483333,
                "lon": 28.8,
                "visits": [
                    {
                        "date": "2010-12-31/2011-01-02"
                    }
                ]
            },
            {
                "name": "Радошковичи",
                "lat": 54.15,
                "lon": 27.233333,
                "visits": [
                    {
                        "date": "2010-08-29"
                    }
                ]
            },
            {
                "name": "Рубежевичи",
                "lat": 53.694167,
                "lon": 26.869444,
                "visits": [
                    {
                        "date": "2015-05-09",
                        "link": "/post/belarus-2015-2/"
                    }
                ]
            },
            {
                "name": "Ружаны",
                "lat": 52.864722,
                "lon": 24.890556,
                "visits": [
                    {
                        "date": "2015-05-09",
                        "link": "/post/belarus-2015-2/"
                    }
                ]
            },
            {
                "name": "Светлогорск",
                "lat": 52.633333,
                "lon": 29.733333
            },
            {
                "name": "Ситцы",
                "lat": 54.924247,
                "lon": 27.536499,
                "visits": [
                    {
                        "date": "2015-05-01",
                        "link": "/post/belarus-2015-1/"
                    }
                ]
            },
            {
                "name": "Слоним",
                "lat": 53.083333,
                "lon": 25.316667,
                "visits": [
                    {
                        "date": "2015-05-09"
                    }
                ]
            },
            {
                "name": "Станьково",
                "lat": 53.630833,
                "lon": 27.224167,
                "visits": [
                    {
                        "date": "2015-05-09",
                        "link": "/post/belarus-2015-2/"
                    }
                ]
            },
            {
                "name": "Столбцы",
                "lat": 53.483333,
                "lon": 26.733333,
                "visits": [
                    {
                        "date": "2015-05-09",
                        "link": "/post/belarus-2015-2/"
                    }
                ]
            },
            {
                "name": "Удело",
                "lat": 55.210278,
                "lon": 27.559167,
                "visits": [
                    {
                        "date": "2015-05-01",
                        "link": "/post/belarus-2015-1/"
                    }
                ]
            }
        ]
    },

    "BOL": {
        "name": "Боливия",
        "color": "purple",
        "cities": [
            {
                "name": "Исла-дель-Соль",
                "lat": -16.020556,
                "lon": -69.176389,
                "visits": [
                    {
                        "date": "2015-09-11",
                        "link": "/post/satrip-2015-isla-del-sol/"
                    }
                ]
            },
            {
                "name": "Копакабана",
                "lat": -16.166667,
                "lon": -69.083333,
                "visits": [
                    {
                        "date": "2015-09-10/2015-09-11",
                        "link": "/post/satrip-2015-copacabana/"
                    }
                ]
            },
            {
                "name": "Ла-Пас",
                "lat": -16.494167,
                "lon": -68.1475,
                "visits": [
                    {
                        "date": "2015-09-04/2015-09-06",
                        "link": "/post/satrip-2015-la-paz/"
                    }
                ]
            },
            {
                "name": "Национальный парк Эдуардо Авароа",
                "lat": -22.466667,
                "lon": -67.466667,
                "visits": [
                    {
                        "date": "2015-09-08/2015-09-09",
                        "link": "/post/satrip-2015-bolivia-national-park/"
                    }
                ]
            },
            {
                "name": "Уюни",
                "lat": -20.466667,
                "lon": -66.833333,
                "visits": [
                    {
                        "date": "2015-09-07",
                        "link": "/post/satrip-2015-uyuni-salt-flats/"
                    }
                ]
            }
        ]
    },

    "BRA": {
        "name": "Бразилия",
        "color": "yellow",
        "cities": [
            {
                "name": "Рио-де-Жанейро",
                "lat": -22.908333,
                "lon": -43.196389,
                "visits": [
                    {
                        "date": "2015-08-29/2015-08-31",
                        "link": "/post/satrip-2015-rio-1/"
                    },
                    {
                        "date": "2015-09-15/2015-09-17",
                        "link": "/post/satrip-2015-rio-4/"
                    }
                ]
            },
            {
                "name": "Фос-ду-Игуасу",
                "lat": -25.547778,
                "lon": -54.587778,
                "visits": [
                    {
                        "date": "2015-09-14/2015-09-15",
                        "link": "/post/satrip-2015-iguazu-falls/"
                    }
                ]
            }
        ]
    },

    "CHE": {
        "name": "Швейцария",
        "color": "blue",
        "cities": [
            {
                "name": "Базель",
                "lat": 47.558333,
                "lon": 7.616667,
                "visits": [
                    {
                        "date": "2016-10-02",
                        "link": "/post/fuellinsdorf/"
                    }
                ]
            },
            {
                "name": "Давос",
                "lat": 46.8,
                "lon": 9.833333,
                "visits": [
                    {
                        "date": "2018-08-03"
                    }
                ]
            },
            {
                "name": "Лугано",
                "lat": 46,
                "lon": 8.95,
                "visits": [
                    {
                        "date": "2018-10-30/2018-10-31"
                    }
                ]
            },
            {
                "name": "Люцерн",
                "lat": 47.0431,
                "lon": 8.3002,
                "visits": [
                    {
                        "date": "2019-03-09"
                    }
                ]
            },
            {
                "name": "Рейнский водопад",
                "lat": 47.6728,
                "lon": 8.6713,
                "visits": [
                    {
                        "date": "2017-07-16"
                    }
                ]
            },
            {
                "name": "Фюллинсдорф",
                "lat": 47.5056,
                "lon": 7.7299,
                "visits": [
                    {
                        "date": "2016-10-02/2016-10-03",
                        "link": "/post/fuellinsdorf/"
                    }
                ]
            },
            {
                "name": "Цюрих",
                "lat": 47.3685,
                "lon": 8.5415,
                "visits": [
                    {
                        "date": "2019-03-06/2019-03-08"
                    }
                ]
            }
        ]
    },

    "CHN": {
        "name": "Китай",
        "color": "yellow",
        "cities": [
            {
                "name": "Гуйлинь",
                "lat": 25.2233,
                "lon": 110.1867,
                "visits": [
                    {
                        "date": "2019-08-29/2019-08-31"
                    }
                ]
            },
            {
                "name": "Лоян",
                "lat": 34.6341,
                "lon": 112.4334,
                "visits": [
                    {
                        "date": "2019-08-24/2019-08-27"
                    }
                ]
            },
            {
                "name": "Пекин",
                "lat": 39.9259,
                "lon": 116.4001,
                "visits": [
                    {
                        "date": "2019-08-21/2019-08-24"
                    }
                ]
            },
            {
                "name": "Сиань",
                "lat": 34.2507,
                "lon": 108.8999,
                "visits": [
                    {
                        "date": "2019-08-31/2019-09-02"
                    }
                ]
            },
            {
                "name": "Ухань",
                "lat": 30.5779,
                "lon": 114.3018,
                "visits": [
                    {
                        "date": "2019-08-27/2019-08-29"
                    }
                ]
            },
            {
                "name": "Юэян",
                "lat": 29.3496,
                "lon": 113.4332,
                "visits": [
                    {
                        "date": "2019-08-28"
                    }
                ]
            }
        ]
    },

    "CZE": {
        "name": "Чехия",
        "color": "pink",
        "cities": [
            {
                "name": "Прага",
                "lat": 50.088611,
                "lon": 14.421389,
                "visits": [
                    {
                        "date": "2012-07-09/2012-07-13"
                    },
                    {
                        "date": "2016-12-30/2017-01-02"
                    }
                ]
            },
            {
                "name": "Чешская Швейцария",
                "lat": 50.8347,
                "lon": 14.2484,
                "visits": [
                    {
                        "date": "2017-06-16",
                        "link": "/post/czech-switzerland-2017/"
                    }
                ]
            },
            {
                "name": "Чески-Крумлов",
                "lat": 48.804,
                "lon": 14.3148,
                "visits": [
                    {
                        "date": "2019-11-01/2019-11-03"
                    }
                ]
            }
        ]
    },

    "DEU": {
        "name": "Германия",
        "color": "orange",
        "cities": [
            {
                "name": "Айхштетт",
                "lat": 48.891944,
                "lon": 11.183889,
                "visits": [
                    {
                        "date": "2020-06-12"
                    }
                ]
            },
            {
                "name": "Альпирсбах",
                "lat": 48.346111,
                "lon": 8.403889,
                "visits": [
                    {
                        "date": "2017-06-10"
                    },
                    {
                        "date": "2015-03-27",
                        "link": "/post/one-day-in-schwarzwald/"
                    }
                ]
            },
            {
                "name": "Альтенкунштадт",
                "lat": 50.116667,
                "lon": 11.25,
                "visits": [
                    {
                        "date": "2020-08-13/2020-08-16"
                    }
                ]
            },
            {
                "name": "Ашаффенбург",
                "lat": 49.969,
                "lon": 9.1477,
                "visits": [
                    {
                        "date": "2021-05-29"
                    }
                ]
            },
            {
                "name": "Бад-Вильдбад",
                "lat": 48.750278,
                "lon": 8.550556,
                "visits": [
                    {
                        "date": "2018-06-17"
                    }
                ]
            },
            {
                "name": "Бад-Урах",
                "lat": 48.4934,
                "lon": 9.4548,
                "visits": [
                    {
                        "date": "2016-07-16",
                        "link": "/post/bad-urach-summer/"
                    },
                    {
                        "date": "2017-01-06",
                        "link": "/post/bad-urach-winter/"
                    }
                ]
            },
            {
                "name": "Бад-Шандау",
                "lat": 50.916667,
                "lon": 14.15,
                "visits": [
                    {
                        "date": "2017-06-15/2017-06-18",
                        "link": "/post/saxon-switzerland-2017/"
                    },
                    {
                        "date": "2014-04-24",
                        "link": "/post/saxon-switzerland-2014/"
                    }
                ]
            },
            {
                "name": "Баден-Баден",
                "lat": 48.7553,
                "lon": 8.2957,
                "visits": [
                    {
                        "date": "2017-07-06"
                    }
                ]
            },
            {
                "name": "Байройт",
                "lat": 49.948056,
                "lon": 11.578333,
                "visits": [
                    {
                        "date": "2020-08-15"
                    }
                ]
            },
            {
                "name": "Бальтрум",
                "lat": 53.728889,
                "lon": 7.368333,
                "visits": [
                    {
                        "date": "2020-08-19"
                    }
                ]
            },
            {
                "name": "Бамберг",
                "lat": 49.9,
                "lon": 10.9,
                "visits": [
                    {
                        "date": "2020-08-14"
                    }
                ]
            },
            {
                "name": "Бахарах",
                "lat": 50.0547,
                "lon": 7.8243,
                "visits": [
                    {
                        "date": "2017-10-01",
                        "link": "/post/rhein-valley-1/"
                    }
                ]
            },
            {
                "name": "Берлин",
                "lat": 52.516667,
                "lon": 13.383333,
                "visits": [
                    {
                        "date": "2020-06-26/2020-06-29"
                    },
                    {
                        "date": "2019-08-09/2019-08-11"
                    },
                    {
                        "date": "2016-06-29/2016-06-30",
                        "link": "/post/berlin-at-night/"
                    },
                    {
                        "date": "2014-04-22/2014-04-26",
                        "link": "/post/berlin-2014/"
                    },
                    {
                        "date": "2013-08-14/2013-08-17",
                        "link": "/post/eurotrip-berlin/"
                    }
                ]
            },
            {
                "name": "Блаубойрен",
                "lat": 48.411944,
                "lon": 9.785,
                "visits": [
                    {
                        "date": "2016-10-23",
                        "link": "/post/blaubeuren/"
                    }
                ]
            },
            {
                "name": "Брайтенштайн",
                "lat": 48.583056,
                "lon": 9.501389,
                "visits": [
                    {
                        "date": "2016-04-03",
                        "link": "/post/breitenstein/"
                    },
                    {
                        "date": "2016-05-06"
                    }
                ]
            },
            {
                "name": "Бургхаузен",
                "lat": 48.166667,
                "lon": 12.833333,
                "visits": [
                    {
                        "date": "2020-06-21"
                    }
                ]
            },
            {
                "name": "Вальденбух",
                "lat": 48.637222,
                "lon": 9.131667,
                "visits": [
                    {
                        "date": "2016-02-27",
                        "link": "/post/ritter-sport-waldenbuch/"
                    }
                ]
            },
            {
                "name": "Вайнхайм",
                "lat": 49.55,
                "lon": 8.666667,
                "visits": [
                    {
                        "date": "2016-05-16"
                    }
                ]
            },
            {
                "name": "Вунзидель",
                "lat": 50.016667,
                "lon": 12.016667,
                "visits": [
                    {
                        "date": "2021-05-23/2021-05-27"
                    }
                ]
            },
            {
                "name": "Вюрцбург",
                "lat": 49.7876,
                "lon": 9.9294,
                "visits": [
                    {
                        "date": "2021-05-28/2021-05-30"
                    }
                ]
            },
            {
                "name": "Гамбург",
                "lat": 53.565278,
                "lon": 10.001389,
                "visits": [
                    {
                        "date": "2016-04-23/2016-04-24",
                        "link": "/post/hamburg/"
                    },
                    {
                        "date": "2020-08-21/2020-08-24"
                    }
                ]
            },
            {
                "name": "Ганновер",
                "lat": 52.374444,
                "lon": 9.738611,
                "visits": [
                    {
                        "date": "2013-08-17",
                        "link": "/post/eurotrip-hannover/"
                    }
                ]
            },
            {
                "name": "Гретзиль",
                "lat": 53.498611,
                "lon": 7.098056,
                "visits": [
                    {
                        "date": "2020-08-18"
                    }
                ]
            },
            {
                "name": "Дрезден",
                "lat": 51.033333,
                "lon": 13.733333,
                "visits": [
                    {
                        "date": "2017-06-18",
                        "link": "/post/dresden-2017/"
                    },
                    {
                        "date": "2012-07-10"
                    }
                ]
            },
            {
                "name": "Дюссельдорф",
                "lat": 51.216667,
                "lon": 6.816667,
                "visits": [
                    {
                        "date": "2014-04-18/2014-04-21",
                        "link": "/post/dusseldorf-2014/"
                    },
                    {
                        "date": "2013-04-05/2013-04-08",
                        "link": "/post/dusseldorf/"
                    },
                    {
                        "date": "2012-04-06/2012-04-08"
                    }
                ]
            },
            {
                "name": "Засниц",
                "lat": 54.516389,
                "lon": 13.641111,
                "visits": [
                    {
                        "date": "2017-04-17/2017-04-19",
                        "link": "/post/sassnitz-and-koenigsstuhl/"
                    }
                ]
            },
            {
                "name": "Зигмаринген",
                "lat": 48.0799,
                "lon": 9.2714,
                "visits": [
                    {
                        "date": "2017-02-19"
                    }
                ]
            },
            {
                "name": "Зинген (Хоэнтвиль)",
                "lat": 47.7562,
                "lon": 8.8948,
                "visits": [
                    {
                        "date": "2017-12-16"
                    },
                    {
                        "date": "2017-05-28"
                    }
                ]
            },
            {
                "name": "Ингольштадт",
                "lat": 48.766667,
                "lon": 11.433333,
                "visits": [
                    {
                        "date": "2020-06-13/2020-06-14"
                    }
                ]
            },
            {
                "name": "Карлсруэ",
                "lat": 49.013889,
                "lon": 8.404167,
                "visits": [
                    {
                        "date": "2016-07-03"
                    }
                ]
            },
            {
                "name": "Кемптен",
                "lat": 47.733333,
                "lon": 10.316667,
                "visits": [
                    {
                        "date": "2021-07-10"
                    }
                ]
            },
            {
                "name": "Кёльн",
                "lat": 50.942222,
                "lon": 6.957778,
                "visits": [
                    {
                        "date": "2013-04-07",
                        "link": "/post/dusseldorf/"
                    }
                ]
            },
            {
                "name": "Кёнигсзе",
                "lat": 47.5434,
                "lon": 13.0298,
                "visits": [
                    {
                        "date": "2018-03-28/2018-03-30"
                    }
                ]
            },
            {
                "name": "Кобленц",
                "lat": 50.3533,
                "lon": 7.6527,
                "visits": [
                    {
                        "date": "2017-10-03",
                        "link": "/post/eltz-koblenz/"
                    }
                ]
            },
            {
                "name": "Констанс",
                "lat": 47.663333,
                "lon": 9.175278,
                "visits": [
                    {
                        "date": "2016-05-26",
                        "link": "/post/konstanz/"
                    }
                ]
            },
            {
                "name": "Кульмбах",
                "lat": 50.1,
                "lon": 11.433333,
                "visits": [
                    {
                        "date": "2020-08-15"
                    }
                ]
            },
            {
                "name": "Лорелей",
                "lat": 50.139353,
                "lon": 7.728656,
                "visits": [
                    {
                        "date": "2017-10-02",
                        "link": "/post/rhein-valley-2/"
                    }
                ]
            },
            {
                "name": "Линдау",
                "lat": 47.5392,
                "lon": 9.7387,
                "visits": [
                    {
                        "date": "2017-05-12"
                    }
                ]
            },
            {
                "name": "Любек",
                "lat": 53.8639,
                "lon": 10.7412,
                "visits": [
                    {
                        "date": "2017-04-21/2017-04-23",
                        "link": "/post/luebeck/"
                    }
                ]
            },
            {
                "name": "Люнебургская пустошь",
                "lat": 53.168614,
                "lon": 9.939694,
                "visits": [
                    {
                        "date": "2020-08-23"
                    }
                ]
            },
            {
                "name": "Мюнхен",
                "lat": 48.1267,
                "lon": 11.6215,
                "visits": [
                    {
                        "date": "2016-11-27/2016-11-29"
                    }
                ]
            },
            {
                "name": "Нойбург-ан-дер-Донау",
                "lat": 48.733333,
                "lon": 11.183333,
                "visits": [
                    {
                        "date": "2020-06-11/2020-06-12"
                    }
                ]
            },
            {
                "name": "Норддайх",
                "lat": 53.614444,
                "lon": 7.150833,
                "visits": [
                    {
                        "date": "2020-08-16/2020-08-21"
                    }
                ]
            },
            {
                "name": "Норден",
                "lat": 53.596667,
                "lon": 7.205556,
                "visits": [
                    {
                        "date": "2020-08-20"
                    }
                ]
            },
            {
                "name": "Нордернай",
                "lat": 53.707222,
                "lon": 7.146944,
                "visits": [
                    {
                        "date": "2020-08-17"
                    }
                ]
            },
            {
                "name": "Нюрнберг",
                "lat": 49.452778,
                "lon": 11.077778,
                "visits": [
                    {
                        "date": "2016-01-06",
                        "link": "/post/nuernberg/"
                    }
                ]
            },
            {
                "name": "Оберстдорф",
                "lat": 47.403,
                "lon": 10.334,
                "visits": [
                    {
                        "date": "2017-08-13"
                    }
                ]
            },
            {
                "name": "Пассау",
                "lat": 48.5597,
                "lon": 13.5216,
                "visits": [
                    {
                        "date": "2021-10-16/2021-10-17"
                    }
                ]
            },
            {
                "name": "Потсдам",
                "lat": 52.4,
                "lon": 13.066667,
                "visits": [
                    {
                        "date": "2014-04-23",
                        "link": "/post/potsdam-2014/"
                    }
                ]
            },
            {
                "name": "Прора",
                "lat": 54.438889,
                "lon": 13.575,
                "visits": [
                    {
                        "date": "2017-04-19",
                        "link": "/post/prora/"
                    }
                ]
            },
            {
                "name": "Регенсбург",
                "lat": 49.016667,
                "lon": 12.083333,
                "visits": [
                    {
                        "date": "2019-05-05"
                    }
                ]
            },
            {
                "name": "Риденбург",
                "lat": 48.966667,
                "lon": 11.683333,
                "visits": [
                    {
                        "date": "2020-06-12/2020-06-13"
                    }
                ]
            },
            {
                "name": "Розенхайм",
                "lat": 47.85,
                "lon": 12.133333,
                "visits": [
                    {
                        "date": "2019-04-27/2019-04-28"
                    }
                ]
            },
            {
                "name": "Росток",
                "lat": 54.0775,
                "lon": 12.1883,
                "visits": [
                    {
                        "date": "2017-04-19/2017-04-21",
                        "link": "/post/rostock/"
                    }
                ]
            },
            {
                "name": "Ротенбург-об-дер-Таубер",
                "lat": 49.3707,
                "lon": 10.2338,
                "visits": [
                    {
                        "date": "2017-05-11",
                        "link": "/post/rothenburg-ob-der-tauber/"
                    }
                ]
            },
            {
                "name": "Титизе",
                "lat": 47.9,
                "lon": 8.15,
                "visits": [
                    {
                        "date": "2015-03-26",
                        "link": "/post/villingen-schwenningen-and-titisee"
                    }
                ]
            },
            {
                "name": "Тодтнау",
                "lat": 47.8434,
                "lon": 7.9391,
                "visits": [
                    {
                        "date": "2016-04-10",
                        "link": "/post/todtnau/"
                    },
                    {
                        "date": "2016-05-07"
                    }
                ]
            },
            {
                "name": "Триберг",
                "lat": 48.130833,
                "lon": 8.231667,
                "visits": [
                    {
                        "date": "2015-03-26",
                        "link": "/post/triberg/"
                    }
                ]
            },
            {
                "name": "Тюбинген",
                "lat": 48.5134,
                "lon": 9.1104,
                "visits": [
                    {
                        "date": "2017-02-12"
                    }
                ]
            },
            {
                "name": "Ульм",
                "lat": 48.4,
                "lon": 9.983333,
                "visits": [
                    {
                        "date": "2017-07-07"
                    },
                    {
                        "date": "2016-01-16",
                        "link": "/post/ulm/"
                    }
                ]
            },
            {
                "name": "Фельдберг",
                "lat": 47.878611,
                "lon": 8.011111,
                "visits": [
                    {
                        "date": "2015-03-27",
                        "link": "/post/one-day-in-schwarzwald/"
                    }
                ]
            },
            {
                "name": "Филлинген-Швенинген",
                "lat": 48.060278,
                "lon": 8.458611,
                "visits": [
                    {
                        "date": "2015-03-26",
                        "link": "/post/villingen-schwenningen-and-titisee"
                    }
                ]
            },
            {
                "name": "Фрайбург",
                "lat": 47.994828,
                "lon": 7.849881,
                "visits": [
                    {
                        "date": "2015-03-25/2015-03-29",
                        "link": "/post/freiburg/"
                    }
                ]
            },
            {
                "name": "Франкфурт-на-Майне",
                "lat": 50.116667,
                "lon": 8.683333,
                "visits": [
                    {
                        "date": "2015-03-29",
                        "link": "/post/frankfurt-am-main/"
                    }
                ]
            },
            {
                "name": "Фридрихсхафен",
                "lat": 47.65,
                "lon": 9.483333,
                "visits": [
                    {
                        "date": "2018-06-10"
                    }
                ]
            },
            {
                "name": "Фюссен (Нойшванштайн)",
                "lat": 47.5598,
                "lon": 10.7549,
                "visits": [
                    {
                        "date": "2017-03-25/2017-03-27"
                    }
                ]
            },
            {
                "name": "Хайдельберг",
                "alias": ["Гейдельберг"],
                "lat": 49.412222,
                "lon": 8.71,
                "visits": [
                    {
                        "date": "2016-01-02",
                        "link": "/post/heidelberg/"
                    }
                ]
            },
            {
                "name": "Хайльбронн",
                "lat": 49.15,
                "lon": 9.216667,
                "visits": [
                    {
                        "date": "2015-01-23"
                    }
                ]
            },
            {
                "name": "Цвизель",
                "lat": 49.0103,
                "lon": 13.2334,
                "visits": [
                    {
                        "date": "2019-05-30/2019-06-02"
                    }
                ]
            },
            {
                "name": "Шауинсланд",
                "lat": 47.911111,
                "lon": 7.899444,
                "visits": [
                    {
                        "date": "2015-03-26",
                        "link": "/post/schauinsland/"
                    }
                ]
            },
            {
                "name": "Шильтах",
                "lat": 48.290556,
                "lon": 8.344722,
                "visits": [
                    {
                        "date": "2015-03-27",
                        "link": "/post/one-day-in-schwarzwald/"
                    }
                ]
            },
            {
                "name": "Шлирзе",
                "lat": 47.733333,
                "lon": 11.866667,
                "visits": [
                    {
                        "date": "2019-05-01"
                    }
                ]
            },
            {
                "name": "Штутгарт",
                "lat": 48.776111,
                "lon": 9.1775
            },
            {
                "name": "Эльц",
                "lat": 50.2034,
                "lon": 7.3504,
                "visits": [
                    {
                        "date": "2017-10-03",
                        "link": "/post/eltz-koblenz/"
                    }
                ]
            },
            {
                "name": "Эссен",
                "lat": 51.45,
                "lon": 7.016667,
                "visits": [
                    {
                        "date": "2015-09-18/2015-09-20"
                    }
                ]
            },
            {
                "name": "Эслинген-ам-Неккар",
                "lat": 48.740556,
                "lon": 9.310833
            }
        ]
    },

    "ESP": {
        "name": "Испания",
        "color": "yellow",
        "cities": [
            {
                "name": "Барселона",
                "lat": 41.383333,
                "lon": 2.183333,
                "visits": [
                    {
                        "date": "2013-08-26/2013-08-30",
                        "link": "/post/eurotrip-barcelona/"
                    },
                    {
                        "date": "2021-08-29/2021-09-05"
                    }
                ]
            },
            {
                "name": "Гранада",
                "lat": 37.1695,
                "lon": -3.6009,
                "visits": [
                    {
                        "date": "2021-08-15"
                    }
                ]
            },
            {
                "name": "Гранольерс",
                "lat": 41.616667,
                "lon": 2.3,
                "visits": [
                    {
                        "date": "2013-08-26/2013-08-30",
                        "link": "/post/eurotrip-barcelona/"
                    }
                ]
            },
            {
                "name": "Грасалема",
                "lat": 36.7503,
                "lon": -5.3691,
                "visits": [
                    {
                        "date": "2021-08-28"
                    }
                ]
            },
            {
                "name": "Кадис",
                "lat": 36.5081,
                "lon": -6.2837,
                "visits": [
                    {
                        "date": "2021-08-22"
                    }
                ]
            },
            {
                "name": "Мадрид",
                "lat": 40.4,
                "lon": -3.683333,
                "visits": [
                    {
                        "date": "2014-12-31/2015-01-04",
                        "link": "/post/new-year-in-madrid"
                    }
                ]
            },
            {
                "name": "Монсеррат",
                "lat": 41.6043,
                "lon": 1.8113,
                "visits": [
                    {
                        "date": "2021-09-01"
                    }
                ]
            },
            {
                "name": "Ронда",
                "lat": 36.7286,
                "lon": -5.1648,
                "visits": [
                    {
                        "date": "2021-08-28"
                    }
                ]
            },
            {
                "name": "Саара-де-ла-Сьерра",
                "lat": 36.7916,
                "lon": -5.4003,
                "visits": [
                    {
                        "date": "2021-08-28"
                    }
                ]
            },
            {
                "name": "Сан-Садурни-д’Анойя",
                "lat": 41.4181,
                "lon": 1.7848,
                "visits": [
                    {
                        "date": "2021-09-02"
                    }
                ]
            },
            {
                "name": "Севилья",
                "lat": 37.3749,
                "lon": -5.9836,
                "visits": [
                    {
                        "date": "2021-08-14/2021-08-29"
                    }
                ]
            },
            {
                "name": "Таррагона",
                "lat": 41.1108,
                "lon": 1.2451,
                "visits": [
                    {
                        "date": "2021-09-03"
                    }
                ]
            },
            {
                "name": "Толедо",
                "lat": 39.866667,
                "lon": -4.033333,
                "visits": [
                    {
                        "date": "2015-01-03",
                        "link": "/post/toledo/"
                    }
                ]
            },
            {
                "name": "Фигерас",
                "lat": 42.2589,
                "lon": 2.9497,
                "visits": [
                    {
                        "date": "2021-08-31"
                    }
                ]
            }
        ]
    },

    "EST": {
        "name": "Эстония",
        "color": "turquoise",
        "cities": [
            {
                "name": "Таллинн",
                "lat": 59.437222,
                "lon": 24.745278,
                "visits": [
                    {
                        "date": "2014-04-29/2014-05-01",
                        "link": "/post/tallinn-2014/"
                    }
                ]
            }
        ]
    },

    "FIN": {
        "name": "Финляндия",
        "color": "blue",
        "cities": [
            {
                "name": "Хельсинки",
                "lat": 60.170833,
                "lon": 24.9375,
                "visits": [
                    {
                        "date": "2014-04-30",
                        "link": "/post/helsinki-2014/"
                    }
                ]
            }
        ]
    },

    "FXX": {
        "name": "Франция",
        "color": "red",
        "cities": [
            {
                "name": "Авиньон",
                "lat": 43.9429,
                "lon": 4.8717,
                "visits": [
                    {
                        "date": "2017-12-26/2017-12-29",
                        "link": "/post/avignon/"
                    }
                ]
            },
            {
                "name": "Биарриц",
                "lat": 43.4847,
                "lon": -1.5485,
                "visits": [
                    {
                        "date": "2018-01-04/2018-01-06"
                    }
                ]
            },
            {
                "name": "Дижон",
                "lat": 47.3172,
                "lon": 5.0977,
                "visits": [
                    {
                        "date": "2017-12-22/2017-12-24",
                        "link": "/post/dijon"
                    }
                ]
            },
            {
                "name": "Каркасон",
                "lat": 43.2059,
                "lon": 2.407,
                "visits": [
                    {
                        "date": "2018-01-02",
                        "link": "/post/carcassonne"
                    }
                ]
            },
            {
                "name": "Кольмар",
                "lat": 48.0751,
                "lon": 7.4106,
                "visits": [
                    {
                        "date": "2017-12-22",
                        "link": "/post/colmar/"
                    }
                ]
            },
            {
                "name": "Лион",
                "lat": 45.7527,
                "lon": 4.8972,
                "visits": [
                    {
                        "date": "2017-12-24/2017-12-26",
                        "link": "/post/lyon/"
                    }
                ]
            },
            {
                "name": "Монпелье",
                "lat": 43.6048,
                "lon": 3.9321,
                "visits": [
                    {
                        "date": "2017-12-29/2018-01-02",
                        "link": "/post/montpellier/"
                    }
                ]
            },
            {
                "name": "Мюлуз",
                "lat": 47.7428,
                "lon": 7.3948,
                "visits": [
                    {
                        "date": "2017-12-22"
                    }
                ]
            },
            {
                "name": "Ним",
                "lat": 43.8261,
                "lon": 4.4048,
                "visits": [
                    {
                        "date": "2017-12-29",
                        "link": "/post/nimes/"
                    }
                ]
            },
            {
                "name": "Париж",
                "lat": 48.8567,
                "lon": 2.3508,
                "visits": [
                    {
                        "date": "2015-08-28",
                        "link": "/post/satrip-2015-paris/"
                    },
                    {
                        "date": "2015-02-27/2015-03-01",
                        "link": "/post/paris-2015/"
                    },
                    {
                        "date": "2013-08-22/2013-08-26",
                        "link": "/post/eurotrip-paris/"
                    }
                ]
            },
            {
                "name": "Страсбург",
                "lat": 48.58,
                "lon": 7.75,
                "visits": [
                    {
                        "date": "2016-03-25/2016-03-27",
                        "link": "/post/strasbourg/"
                    }
                ]
            },
            {
                "name": "Тулуза",
                "lat": 43.598,
                "lon": 1.4976,
                "visits": [
                    {
                        "date": "2018-01-02/2018-01-04"
                    }
                ]
            },
            {
                "name": "Шатонёф-дю-Пап",
                "lat": 44.0498,
                "lon": 4.8869,
                "visits": [
                    {
                        "date": "2017-12-28",
                        "link": "/post/avignon/"
                    }
                ]
            }
        ]
    },

    "GBR": {
        "name": "Великобритания",
        "color": "blue",
        "cities": [
            {
                "name": "Белфаст",
                "lat": 54.598611,
                "lon": -5.9275,
                "visits": [
                    {
                        "date": "2018-09-09"
                    }
                ]
            },
            {
                "name": "Глазго",
                "lat": 55.858,
                "lon": -4.259,
                "visits": [
                    {
                        "date": "2018-05-21"
                    }
                ]
            },
            {
                "name": "Джон о'Гроатс",
                "lat": 58.64,
                "lon": -3.07,
                "visits": [
                    {
                        "date": "2018-05-22"
                    }
                ]
            },
            {
                "name": "Инвернесс",
                "lat": 57.4718,
                "lon": -4.2254,
                "visits": [
                    {
                        "date": "2018-05-21/2018-05-23"
                    }
                ]
            },
            {
                "name": "Истборн",
                "lat": 50.77,
                "lon": 0.28,
                "visits": [
                    {
                        "date": "2018-06-01"
                    }
                ]
            },
            {
                "name": "Ливерпуль",
                "lat": 53.4,
                "lon": -3,
                "visits": [
                    {
                        "date": "2018-05-27/2018-05-30"
                    }
                ]
            },
            {
                "name": "Лондон",
                "lat": 51.507222,
                "lon": -0.1275,
                "visits": [
                    {
                        "date": "2018-05-30/2018-06-04"
                    }
                ]
            },
            {
                "name": "Мостовая Гигантов",
                "lat": 55.240833,
                "lon": -6.511667,
                "visits": [
                    {
                        "date": "2018-09-09"
                    }
                ]
            },
            {
                "name": "Питлохри",
                "lat": 56.705,
                "lon": -3.733,
                "visits": [
                    {
                        "date": "2018-05-25"
                    }
                ]
            },
            {
                "name": "Норт-Берик",
                "lat": 56.058,
                "lon": -2.717,
                "visits": [
                    {
                        "date": "2018-05-26"
                    }
                ]
            },
            {
                "name": "Фолкерк",
                "lat": 56.0011,
                "lon": -3.7835,
                "visits": [
                    {
                        "date": "2018-05-26"
                    }
                ]
            },
            {
                "name": "Эдинбург",
                "lat": 55.953056,
                "lon": -3.188889,
                "visits": [
                    {
                        "date": "2018-05-23/2018-05-27"
                    }
                ]
            }
        ]
    },

    "GRC": {
        "name": "Греция",
        "color": "red",
        "cities": [
            {
                "name": "Афины",
                "lat": 37.983972,
                "lon": 23.727806,
                "visits": [
                    {
                        "date": "2019-12-28/2019-12-30"
                    }
                ]
            },
            {
                "name": "Волос",
                "lat": 39.366667,
                "lon": 22.933333,
                "visits": [
                    {
                        "date": "2020-02-03"
                    }
                ]
            },
            {
                "name": "Лариса",
                "lat": 39.641667,
                "lon": 22.416667,
                "visits": [
                    {
                        "date": "2020-01-02/2020-01-06"
                    }
                ]
            },
            {
                "name": "Метеора",
                "lat": 39.714167,
                "lon": 21.631111,
                "visits": [
                    {
                        "date": "2020-01-04"
                    }
                ]
            },
            {
                "name": "Салоники",
                "lat": 40.65,
                "lon": 22.9,
                "visits": [
                    {
                        "date": "2019-12-25/2019-12-28"
                    }
                ]
            },
            {
                "name": "Санторини",
                "lat": 36.416667,
                "lon": 25.433333,
                "visits": [
                    {
                        "date": "2019-12-30/2020-01-02"
                    }
                ]
            }
        ]
    },

    "HRV": {
        "name": "Хорватия",
        "color": "yellow",
        "cities": [
            {
                "name": "Загреб",
                "lat": 45.8,
                "lon": 15.95,
                "visits": [
                    {
                        "date": "2014-06-21",
                        "link": "/post/eurotrip-2014-zagreb/"
                    }
                ]
            },
            {
                "name": "Плитвицкие озёра",
                "lat": 44.880556,
                "lon": 15.616111,
                "visits": [
                    {
                        "date": "2014-06-22",
                        "link": "/post/eurotrip-2014-plitvice-lakes/"
                    }
                ]
            }
        ]
    },

    "HUN": {
        "name": "Венгрия",
        "color": "orange",
        "cities": [
            {
                "name": "Будапешт",
                "lat": 47.516667,
                "lon": 19.083333,
                "visits": [
                    {
                        "date": "2014-06-16/2014-06-17",
                        "link": "/post/eurotrip-2014-budapest/"
                    }
                ]
            }
        ]
    },

    "IRL": {
        "name": "Ирландия",
        "color": "green",
        "cities": [
            {
                "name": "Голвей",
                "lat": 53.271944,
                "lon": -9.048889,
                "visits": [
                    {
                        "date": "2018-09-05/2018-09-08"
                    }
                ]
            },
            {
                "name": "Дублин",
                "lat": 53.349722,
                "lon": -6.260278,
                "visits": [
                    {
                        "date": "2018-09-08/2018-09-10"
                    }
                ]
            },
            {
                "name": "Килларни",
                "lat": 52.0588,
                "lon": -9.5072,
                "visits": [
                    {
                        "date": "2018-09-03/2018-09-05"
                    }
                ]
            },
            {
                "name": "Ков",
                "lat": 51.851,
                "lon": -8.2967,
                "visits": [
                    {
                        "date": "2018-09-03"
                    }
                ]
            },
            {
                "name": "Конг",
                "lat": 53.5333,
                "lon": -9.2833,
                "visits": [
                    {
                        "date": "2018-09-06"
                    }
                ]
            },
            {
                "name": "Коннемара",
                "lat": 53.5,
                "lon": -9.75,
                "visits": [
                    {
                        "date": "2018-09-06"
                    }
                ]
            },
            {
                "name": "Корк",
                "lat": 51.897222,
                "lon": -8.47,
                "visits": [
                    {
                        "date": "2018-09-02/2018-09-03"
                    }
                ]
            },
            {
                "name": "Утёсы Мохер",
                "lat": 52.971751,
                "lon": -9.426334,
                "visits": [
                    {
                        "date": "2018-09-07"
                    }
                ]
            }
        ]
    },

    "ITA": {
        "name": "Италия",
        "color": "green",
        "cities": [
            {
                "name": "Бергамо",
                "lat": 45.7,
                "lon": 9.666667,
                "visits": [
                    {
                        "date": "2014-07-05",
                        "link": "/post/eurotrip-2014-milan-and-bergamo/"
                    }
                ]
            },
            {
                "name": "Болонья",
                "lat": 44.5,
                "lon": 11.35,
                "visits": [
                    {
                        "date": "2014-06-28",
                        "link": "/post/eurotrip-2014-bologna/"
                    }
                ]
            },
            {
                "name": "Везувий",
                "lat": 40.821389,
                "lon": 14.425556,
                "visits": [
                    {
                        "date": "2014-06-30",
                        "link": "/post/eurotrip-2014-vesuvius-and-pompeii/"
                    }
                ]
            },
            {
                "name": "Венеция",
                "lat": 45.4264,
                "lon": 12.3716,
                "visits": [
                    {
                        "date": "2017-11-24/2017-11-27"
                    }
                ]
            },
            {
                "name": "Верона",
                "lat": 45.433333,
                "lon": 10.983333,
                "visits": [
                    {
                        "date": "2014-06-27",
                        "link": "/post/eurotrip-2014-verona/"
                    }
                ]
            },
            {
                "name": "Капри",
                "lat": 40.550833,
                "lon": 14.243333,
                "visits": [
                    {
                        "date": "2014-07-01/2014-07-03",
                        "link": "/post/eurotrip-2014-capri/"
                    }
                ]
            },
            {
                "name": "Комо",
                "lat": 45.816667,
                "lon": 9.083333,
                "visits": [
                    {
                        "date": "2018-10-28/2018-10-30"
                    }
                ]
            },
            {
                "name": "Милан",
                "lat": 45.466667,
                "lon": 9.166667,
                "visits": [
                    {
                        "date": "2014-07-05",
                        "link": "/post/eurotrip-2014-milan-and-bergamo/"
                    }
                ]
            },
            {
                "name": "Мольвено",
                "lat": 46.15,
                "lon": 10.966667,
                "visits": [
                    {
                        "date": "2019-04-19/2019-04-22"
                    }
                ]
            },
            {
                "name": "Неаполь",
                "lat": 40.833333,
                "lon": 14.25,
                "visits": [
                    {
                        "date": "2014-07-01",
                        "link": "/post/eurotrip-2014-naples/"
                    }
                ]
            },
            {
                "name": "Падуя",
                "lat": 45.416667,
                "lon": 11.866667,
                "visits": [
                    {
                        "date": "2014-06-26",
                        "link": "/post/eurotrip-2014-padua/"
                    }
                ]
            },
            {
                "name": "Помпеи",
                "lat": 40.75,
                "lon": 14.486111,
                "visits": [
                    {
                        "date": "2014-06-30",
                        "link": "/post/eurotrip-2014-vesuvius-and-pompeii/"
                    }
                ]
            },
            {
                "name": "Рим",
                "lat": 41.9,
                "lon": 12.5,
                "visits": [
                    {
                        "date": "2014-07-04/2014-07-05",
                        "link": "/post/eurotrip-2014-rome/"
                    }
                ]
            },
            {
                "name": "Флоренция",
                "lat": 43.783333,
                "lon": 11.25,
                "visits": [
                    {
                        "date": "2014-06-29",
                        "link": "/post/eurotrip-2014-florence/"
                    }
                ]
            }
        ]
    },

    "LIE": {
        "name": "Лихтенштейн",
        "color": "pink",
        "cities": [
            {
                "name": "Вадуц",
                "lat": 47.141,
                "lon": 9.521,
                "visits": [
                    {
                        "date": "2018-07-29"
                    }
                ]
            }, {
                "name": "Мальбун",
                "lat": 47.102,
                "lon": 9.608,
                "visits": [
                    {
                        "date": "2018-07-29"
                    }
                ]
            }
        ]
    },

    "LTU": {
        "name": "Литва",
        "color": "blue",
        "cities": [
            {
                "name": "Вильнюс",
                "lat": 54.683333,
                "lon": 25.283333,
                "visits": [
                    {
                        "date": "2014-09-10/2014-09-12"
                    },
                    {
                        "date": "2014-03-04/2014-03-09",
                        "link": "/post/vilnius/"
                    },
                    {
                        "date": "2013-03-02"
                    },
                    {
                        "date": "2013-01-27"
                    }
                ]
            }
        ]
    },

    "LVA": {
        "name": "Латвия",
        "color": "pink",
        "cities": [
            {
                "name": "Рига",
                "lat": 56.9475,
                "lon": 24.106944,
                "visits": [
                    {
                        "date": "2014-02-08/2014-02-09",
                        "link": "/post/riga/"
                    }
                ]
            },
            {
                "name": "Юрмала",
                "lat": 56.972222,
                "lon": 23.796944,
                "visits": [
                    {
                        "date": "2014-02-09",
                        "link": "/post/riga/"
                    }
                ]
            }
        ]
    },

    "MDA": {
        "name": "Молдова",
        "color": "turquoise",
        "cities": [
            {
                "name": "Кишинёв",
                "lat": 47.00556,
                "lon": 28.85750,
                "visits": [
                    {
                        "date": "2014-06-12/2014-06-13",
                        "link": "/post/eurotrip-2014-chisinau/"
                    }
                ]
            },
            {
                "name": "Кожушна",
                "lat": 47.0930555556,
                "lon": 28.6583333333,
                "visits": [
                    {
                        "date": "2014-06-13",
                        "link": "/post/eurotrip-2014-chisinau/"
                    }
                ]
            }
        ]
    },

    "NLD": {
        "name": "Нидерланды",
        "color": "purple",
        "cities": [
            {
                "name": "Амстердам",
                "lat": 52.383333,
                "lon": 4.9,
                "visits": [
                    {
                        "date": "2013-08-17/2013-08-19",
                        "link": "/post/eurotrip-amsterdam/"
                    }
                ]
            }
        ]
    },

    "NOR": {
        "name": "Норвегия",
        "color": "yellow",
        "cities": [
            {
                "name": "Осло",
                "lat": 59.95,
                "lon": 10.75,
                "visits": [
                    {
                        "date": "2013-11-07/2013-11-10",
                        "link": "/post/oslo/"
                    }
                ]
            }
        ]
    },

    "PER": {
        "name": "Перу",
        "color": "pink",
        "cities": [
            {
                "name": "Куско",
                "lat": -13.527222,
                "lon": -71.971389,
                "visits": [
                    {
                        "date": "2015-09-01/2015-09-02",
                        "link": "/post/satrip-2015-rio-to-cusco/"
                    },
                    {
                        "date": "2015-09-12",
                        "link": "/post/satrip-2015-cusco-again/"
                    }
                ]
            },
            {
                "name": "Лима",
                "lat": -12.035,
                "lon": -77.018611,
                "visits": [
                    {
                        "date": "2015-09-13",
                        "link": "/post/satrip-2015-lima/"
                    }
                ]
            },
            {
                "name": "Мачу-Пикчу",
                "lat": -13.163056,
                "lon": -72.545556,
                "visits": [
                    {
                        "date": "2015-09-03",
                        "link": "/post/satrip-2015-machu-picchu/"
                    }
                ]
            }
        ]
    },

    "POL": {
        "name": "Польша",
        "color": "yellow",
        "cities": [
            {
                "name": "Белосток",
                "lat": 53.116667,
                "lon": 23.166667,
                "visits": [
                    {
                        "date": "2014-10-24/2014-10-26",
                        "link": "/post/bialystok/"
                    },
                    {
                        "date": "2015-01-30/2015-01-31"
                    }
                ]
            },
            {
                "name": "Варшава",
                "lat": 52.216667,
                "lon": 21.033333,
                "visits": [
                    {
                        "date": "2013-08-11",
                        "link": "/post/eurotrip-warsaw/"
                    },
                    {
                        "date": "2013-04-05",
                        "link": "/post/dusseldorf/"
                    },
                    {
                        "date": "2021-07-30/2021-07-31"
                    },
                    {
                        "date": "2021-08-07/2021-08-08"
                    }
                ]
            },
            {
                "name": "Венгожево",
                "lat": 54.2103,
                "lon": 21.7497,
                "visits": [
                    {
                        "date": "2021-08-05/2021-08-06"
                    }
                ]
            },
            {
                "name": "Вроцлав",
                "lat": 51.116667,
                "lon": 17.033333,
                "visits": [
                    {
                        "date": "2013-08-12/2013-08-14",
                        "link": "/post/eurotrip-wroclaw/"
                    }
                ]
            },
            {
                "name": "Гданьск",
                "lat": 54.361,
                "lon": 18.6884,
                "visits": [
                    {
                        "date": "2017-04-14/2017-04-17",
                        "link": "/post/gdansk/"
                    }
                ]
            },
            {
                "name": "Гижицко",
                "lat": 54.0337,
                "lon": 21.7586,
                "visits": [
                    {
                        "date": "2021-08-07"
                    }
                ]
            },
            {
                "name": "Краков",
                "lat": 50.066667,
                "lon": 19.95,
                "visits": [
                    {
                        "date": "2013-08-11/2013-08-12",
                        "link": "/post/eurotrip-krakow/"
                    }
                ]
            },
            {
                "name": "Кудова-Здруй",
                "lat": 50.433333,
                "lon": 16.233333,
                "visits": [
                    {
                        "date": "2012-07-09"
                    }
                ]
            },
            {
                "name": "Люблин",
                "lat": 51.233333,
                "lon": 22.566667,
                "visits": [
                    {
                        "date": "2015-02-14/2015-02-15",
                        "link": "/post/lublin-and-majdanek/"
                    }
                ]
            },
            {
                "name": "Мазурские озёра",
                "lat": 54.0007,
                "lon": 22.0005,
                "visits": [
                    {
                        "date": "2021-07-31/2021-08-07"
                    }
                ]
            }
        ]
    },

    "PR1": {
        "name": "Португалия",
        "color": "green",
        "cities": [
            {
                "name": "Кашкайш",
                "lat": 38.683333,
                "lon": -9.416667,
                "visits": [
                    {
                        "date": "2016-09-24",
                        "link": "/post/europas-edge/#cascais"
                    }
                ]
            },
            {
                "name": "Коимбра",
                "lat": 40.2347,
                "lon": -8.3949,
                "visits": [
                    {
                        "date": "2016-09-22",
                        "link": "/post/coimbra/"
                    }
                ]
            },
            {
                "name": "Лиссабон",
                "lat": 38.716667,
                "lon": -9.166667,
                "visits": [
                    {
                        "date": "2016-09-22/2016-09-27",
                        "link": "/post/lisbon/"
                    }
                ]
            },
            {
                "name": "Мыс Рока",
                "lat": 38.780833,
                "lon": -9.498333,
                "visits": [
                    {
                        "date": "2016-09-24",
                        "link": "/post/europas-edge/"
                    }
                ]
            },
            {
                "name": "Порту",
                "lat": 41.15,
                "lon": -8.6,
                "visits": [
                    {
                        "date": "2016-09-19/2016-09-22",
                        "link": "/post/porto-1/"
                    },
                    {
                        "date": "2016-09-27/2016-09-28",
                        "link": "/post/porto-2/"
                    }
                ]
            },
            {
                "name": "Синтра",
                "lat": 38.797361,
                "lon": -9.390417,
                "visits": [
                    {
                        "date": "2016-09-24",
                        "link": "/post/sintra/"
                    }
                ]
            }
        ]
    },

    "ROU": {
        "name": "Румыния",
        "color": "purple",
        "cities": [
            {
                "name": "Бран",
                "lat": 45.51306,
                "lon": 25.36389,
                "visits": [
                    {
                        "date": "2014-06-15",
                        "link": "/post/eurotrip-2014-bran-rasnov-brasov/"
                    }
                ]
            },
            {
                "name": "Брашов",
                "lat": 45.666667,
                "lon": 25.616667,
                "visits": [
                    {
                        "date": "2014-06-15",
                        "link": "/post/eurotrip-2014-bran-rasnov-brasov/"
                    }
                ]
            },
            {
                "name": "Бухарест",
                "lat": 44.400,
                "lon": 26.083,
                "visits": [
                    {
                        "date": "2014-06-14",
                        "link": "/post/eurotrip-2014-bucharest/"
                    }
                ]
            },
            {
                "name": "Рашнов",
                "lat": 45.593333,
                "lon": 25.460278,
                "visits": [
                    {
                        "date": "2014-06-15",
                        "link": "/post/eurotrip-2014-bran-rasnov-brasov/"
                    }
                ]
            },
            {
                "name": "Сигишоара",
                "lat": 46.216944,
                "lon": 24.791111,
                "visits": [
                    {
                        "date": "2014-06-15",
                        "link": "/post/eurotrip-2014-sighisoara/"
                    }
                ]
            }
        ]
    },

    "RUS": {
        "name": "Россия",
        "color": "red",
        "regions": {
            "RUS-2336": "Ленинградская область",
            "RUS-2337": "Санкт-Петербург",
            "RUS-2364": "Московская область",
            "RUS-2365": "Москва",
            "RUS-283": "Крым",
            "RUS-5482": "Севастополь"
        },
        "cities": [
            {
                "name": "Гатчина",
                "lat": 59.566667,
                "lon": 30.133333,
                "visits": [
                    {
                        "date": "2014-12-27",
                        "link": "/post/saint-petersburg-and-gatchina/"
                    }
                ]
            },
            {
                "name": "Москва",
                "lat": 55.751667,
                "lon": 37.617778,
                "visits": [
                    {
                        "date": "2017-12-09/2017-12-12"
                    },
                    {
                        "date": "2012-11-03"
                    },
                    {
                        "date": "2012-06-09"
                    }
                ]
            },
            {
                "name": "Санкт-Петербург",
                "lat": 59.95,
                "lon": 30.316667,
                "visits": [
                    {
                        "date": "2014-12-25/2014-12-28",
                        "link": "/post/saint-petersburg-and-gatchina/"
                    }
                ]
            }
        ]
    },

    "SVK": {
        "name": "Словакия",
        "color": "red",
        "cities": [
            {
                "name": "Братислава",
                "lat": 48.144722,
                "lon": 17.112778,
                "visits": [
                    {
                        "date": "2014-06-18",
                        "link": "/post/eurotrip-2014-bratislava/"
                    }
                ]
            }
        ]
    },

    "SVN": {
        "name": "Словения",
        "color": "purple",
        "cities": [
            {
                "name": "Блед",
                "lat": 46.366667,
                "lon": 14.116667,
                "visits": [
                    {
                        "date": "2017-10-29/2017-10-31",
                        "link": "/post/bled-2017/"
                    },
                    {
                        "date": "2014-06-25",
                        "link": "/post/eurotrip-2014-bled-bohinj/"
                    }
                ]
            },
            {
                "name": "Бохинь",
                "lat": 46.273886,
                "lon": 13.950578,
                "visits": [
                    {
                        "date": "2017-10-31/2017-11-01",
                        "link": "/post/bohinj-2017/"
                    },
                    {
                        "date": "2014-06-25",
                        "link": "/post/eurotrip-2014-bled-bohinj/"
                    }
                ]
            },
            {
                "name": "Копер",
                "lat": 45.5429,
                "lon": 13.7882,
                "visits": [
                    {
                        "date": "2017-11-02/2017-11-04",
                        "link": "/post/piran-koper-2017/"
                    }
                ]
            },
            {
                "name": "Любляна",
                "lat": 46.05,
                "lon": 14.5,
                "visits": [
                    {
                        "date": "2017-11-04/2017-11-05"
                    },
                    {
                        "date": "2017-11-01/2017-11-02"
                    },
                    {
                        "date": "2014-06-23",
                        "link": "/post/eurotrip-2014-ljubljana/"
                    }
                ]
            },
            {
                "name": "Пиран",
                "lat": 45.5191,
                "lon": 13.6251,
                "visits": [
                    {
                        "date": "2017-11-03",
                        "link": "/post/piran-koper-2017/"
                    }
                ]
            },
            {
                "name": "Постойна",
                "lat": 45.766667,
                "lon": 14.216667,
                "visits": [
                    {
                        "date": "2014-06-24",
                        "link": "/post/eurotrip-2014-postojna-skocjan/"
                    }
                ]
            },
            {
                "name": "Шкотьян",
                "lat": 45.662222,
                "lon": 13.988333,
                "visits": [
                    {
                        "date": "2017-11-02",
                        "link": "/post/skocjan-2017/"
                    },
                    {
                        "date": "2014-06-24",
                        "link": "/post/eurotrip-2014-postojna-skocjan/"
                    }
                ]
            }
        ]
    },

    "SWE": {
        "name": "Швеция",
        "color": "purple",
        "cities": [
            {
                "name": "Стокгольм",
                "lat": 59.333333,
                "lon": 18.066667,
                "visits": [
                    {
                        "date": "2015-05-28/2015-05-31",
                        "link": "/post/stockholm/"
                    }
                ]
            }
        ]
    },

    "TUR": {
        "name": "Турция",
        "color": "turquoise",
        "cities": [
            {
                "name": "Стамбул",
                "lat": 41.01,
                "lon": 28.960278,
                "visits": [
                    {
                        "date": "2015-04-18/2015-04-21",
                        "link": "/post/istanbul/"
                    }
                ]
            }
        ]
    },

    "UKR": {
        "name": "Украина",
        "color": "pink",
        "cities": [
            {
                "name": "Балаклава",
                "lat": 44.5,
                "lon": 33.6,
                "visits": [
                    {
                        "date": "2011-07-24/2011-08-04"
                    }
                ]
            },
            {
                "name": "Бахчисарай",
                "lat": 44.752778,
                "lon": 33.860833,
                "visits": [
                    {
                        "date": "2011-07-29"
                    }
                ]
            },
            {
                "name": "Киев",
                "lat": 50.4505,
                "lon": 30.523,
                "visits": [
                    {
                        "date": "2012-04-21/2012-04-24"
                    },
                    {
                        "date": "2013-10-05"
                    }
                ]
            },
            {
                "name": "Львов",
                "lat": 49.833333,
                "lon": 24,
                "visits": [
                    {
                        "date": "2011-12-31/2012-01-02"
                    }
                ]
            },
            {
                "name": "Севастополь",
                "lat": 44.6,
                "lon": 33.533333,
                "visits": [
                    {
                        "date": "2011-07-26"
                    },
                    {
                        "date": "2011-08-01"
                    }
                ]
            },
            {
                "name": "Симферополь",
                "lat": 44.948056,
                "lon": 34.104167,
                "visits": [
                    {
                        "date": "2011-08-05/2011-08-06"
                    }
                ]
            },
            {
                "name": "Форос",
                "lat": 44.391667,
                "lon": 33.788889,
                "visits": [
                    {
                        "date": "2011-08-02"
                    }
                ]
            }
        ]
    },

    "USA": {
        "name": "США",
        "color": "yellow",
        "regions": {
            "USA-3559": "Нью-Йорк",
            "USA-3556": "Округ Колумбия"
        },
        "cities": [
            {
                "name": "Нью-Йорк",
                "lat": 40.728333,
                "lon": -73.994167,
                "visits": [
                    {
                        "date": "2014-10-04/2014-10-16",
                        "link": "/post/new-york-2014-1/"
                    }
                ]
            },
            {
                "name": "Вашингтон",
                "lat": 38.895,
                "lon": -77.036667,
                "visits": [
                    {
                        "date": "2014-10-11",
                        "link": "/post/washington-dc-2014/"
                    }
                ]
            }
        ]
    }
}
